{
"type": "FeatureCollection",
"name": "ddd",
"crs": { "type": "name", "properties": { "name": "urn:ogc:def:crs:OGC:1.3:CRS84" } },
"features": [
{ "type": "Feature", "properties": { "Name": "GMIT Jemaat Kota Kupang", "description": null, "timestamp": null, "begin": null, "end": null, "altitudeMode": null, "tessellate": -1, "extrude": 0, "visibility": -1, "drawOrder": null, "icon": null }, "geometry": { "type": "Point", "coordinates": [ 123.5777664, -10.1627254, 0.0 ] } },
{ "type": "Feature", "properties": { "Name": "GMIT Jemaat Kota Baru", "description": null, "timestamp": null, "begin": null, "end": null, "altitudeMode": null, "tessellate": -1, "extrude": 0, "visibility": -1, "drawOrder": null, "icon": null }, "geometry": { "type": "Point", "coordinates": [ 123.614981, -10.1557154, 0.0 ] } },
{ "type": "Feature", "properties": { "Name": "Gereja GMIT Jemaat Marturia Oesapa Selatan", "description": null, "timestamp": null, "begin": null, "end": null, "altitudeMode": null, "tessellate": -1, "extrude": 0, "visibility": -1, "drawOrder": null, "icon": null }, "geometry": { "type": "Point", "coordinates": [ 123.6540377, -10.1563607, 0.0 ] } },
{ "type": "Feature", "properties": { "Name": "Gereja GMIT Jemaat Agape Kupang", "description": null, "timestamp": null, "begin": null, "end": null, "altitudeMode": null, "tessellate": -1, "extrude": 0, "visibility": -1, "drawOrder": null, "icon": null }, "geometry": { "type": "Point", "coordinates": [ 123.5799852, -10.1633091, 0.0 ] } },
{ "type": "Feature", "properties": { "Name": "Gereja GMIT Jemaat Bet'el Oesapa", "description": null, "timestamp": null, "begin": null, "end": null, "altitudeMode": null, "tessellate": -1, "extrude": 0, "visibility": -1, "drawOrder": null, "icon": null }, "geometry": { "type": "Point", "coordinates": [ 123.6502198, -10.1467386, 0.0 ] } },
{ "type": "Feature", "properties": { "Name": "GMIT Jemaat Benyamin Oebufu", "description": null, "timestamp": null, "begin": null, "end": null, "altitudeMode": null, "tessellate": -1, "extrude": 0, "visibility": -1, "drawOrder": null, "icon": null }, "geometry": { "type": "Point", "coordinates": [ 123.6277426, -10.1732045, 0.0 ] } },
{ "type": "Feature", "properties": { "Name": "GMIT BETLEHEM PENKASE OELETA", "description": null, "timestamp": null, "begin": null, "end": null, "altitudeMode": null, "tessellate": -1, "extrude": 0, "visibility": -1, "drawOrder": null, "icon": null }, "geometry": { "type": "Point", "coordinates": [ 123.5544321, -10.180616, 0.0 ] } },
{ "type": "Feature", "properties": { "Name": "GMIT Jemaat Betlehem Penkase - Oeleta", "description": null, "timestamp": null, "begin": null, "end": null, "altitudeMode": null, "tessellate": -1, "extrude": 0, "visibility": -1, "drawOrder": null, "icon": null }, "geometry": { "type": "Point", "coordinates": [ 123.558782, -10.1827587, 0.0 ] } },
{ "type": "Feature", "properties": { "Name": "GMIT Jemaat Bahtera Hayat Osmo", "description": null, "timestamp": null, "begin": null, "end": null, "altitudeMode": null, "tessellate": -1, "extrude": 0, "visibility": -1, "drawOrder": null, "icon": null }, "geometry": { "type": "Point", "coordinates": [ 123.5562705, -10.1823361, 0.0 ] } },
{ "type": "Feature", "properties": { "Name": "Gereja GMIT Jemaat Kefas Kampung Baru", "description": null, "timestamp": null, "begin": null, "end": null, "altitudeMode": null, "tessellate": -1, "extrude": 0, "visibility": -1, "drawOrder": null, "icon": null }, "geometry": { "type": "Point", "coordinates": [ 123.5868694, -10.1650107, 0.0 ] } },
{ "type": "Feature", "properties": { "Name": "Gereja GMIT Jemaat Zoar Penkase", "description": null, "timestamp": null, "begin": null, "end": null, "altitudeMode": null, "tessellate": -1, "extrude": 0, "visibility": -1, "drawOrder": null, "icon": null }, "geometry": { "type": "Point", "coordinates": [ 123.5522431, -10.1909198, 0.0 ] } },
{ "type": "Feature", "properties": { "Name": "GMIT Jemaat Lahai-Roi Namosain", "description": null, "timestamp": null, "begin": null, "end": null, "altitudeMode": null, "tessellate": -1, "extrude": 0, "visibility": -1, "drawOrder": null, "icon": null }, "geometry": { "type": "Point", "coordinates": [ 123.5580872, -10.1732898, 0.0 ] } },
{ "type": "Feature", "properties": { "Name": "GMIT Jemaat Syalom Airnona", "description": null, "timestamp": null, "begin": null, "end": null, "altitudeMode": null, "tessellate": -1, "extrude": 0, "visibility": -1, "drawOrder": null, "icon": null }, "geometry": { "type": "Point", "coordinates": [ 123.5875369, -10.18272, 0.0 ] } },
{ "type": "Feature", "properties": { "Name": "GMIT Jemaat Moria Kota Nyonya - Wilayah Moria Alak", "description": null, "timestamp": null, "begin": null, "end": null, "altitudeMode": null, "tessellate": -1, "extrude": 0, "visibility": -1, "drawOrder": null, "icon": null }, "geometry": { "type": "Point", "coordinates": [ 123.5649322, -10.1820948, 0.0 ] } },
{ "type": "Feature", "properties": { "Name": "Gereja GMIT Jemaat Betlehem Oesapa Barat", "description": null, "timestamp": null, "begin": null, "end": null, "altitudeMode": null, "tessellate": -1, "extrude": 0, "visibility": -1, "drawOrder": null, "icon": null }, "geometry": { "type": "Point", "coordinates": [ 123.6297952, -10.1496388, 0.0 ] } },
{ "type": "Feature", "properties": { "Name": "GMIT Jemaat Tamariska Maulafa", "description": null, "timestamp": null, "begin": null, "end": null, "altitudeMode": null, "tessellate": -1, "extrude": 0, "visibility": -1, "drawOrder": null, "icon": null }, "geometry": { "type": "Point", "coordinates": [ 123.6216335, -10.1891856, 0.0 ] } },
{ "type": "Feature", "properties": { "Name": "Gereja GMIT Jemaat Tuak Daun Merah", "description": null, "timestamp": null, "begin": null, "end": null, "altitudeMode": null, "tessellate": -1, "extrude": 0, "visibility": -1, "drawOrder": null, "icon": null }, "geometry": { "type": "Point", "coordinates": [ 123.6331173, -10.1617043, 0.0 ] } },
{ "type": "Feature", "properties": { "Name": "Gereja GMIT Jemaat Bukit Karang Hoinbala", "description": null, "timestamp": null, "begin": null, "end": null, "altitudeMode": null, "tessellate": -1, "extrude": 0, "visibility": -1, "drawOrder": null, "icon": null }, "geometry": { "type": "Point", "coordinates": [ 123.5831026, -10.1739074, 0.0 ] } },
{ "type": "Feature", "properties": { "Name": "GMIT Jemaat Anugerah", "description": null, "timestamp": null, "begin": null, "end": null, "altitudeMode": null, "tessellate": -1, "extrude": 0, "visibility": -1, "drawOrder": null, "icon": null }, "geometry": { "type": "Point", "coordinates": [ 123.6005456, -10.1756871, 0.0 ] } },
{ "type": "Feature", "properties": { "Name": "GMIT Jemaat Batu Karang Kupang", "description": null, "timestamp": null, "begin": null, "end": null, "altitudeMode": null, "tessellate": -1, "extrude": 0, "visibility": -1, "drawOrder": null, "icon": null }, "geometry": { "type": "Point", "coordinates": [ 123.595413, -10.1697828, 0.0 ] } },
{ "type": "Feature", "properties": { "Name": "Gereja GMIT Jemaat EBENHEIZER, Oeba", "description": null, "timestamp": null, "begin": null, "end": null, "altitudeMode": null, "tessellate": -1, "extrude": 0, "visibility": -1, "drawOrder": null, "icon": null }, "geometry": { "type": "Point", "coordinates": [ 123.590257, -10.1587681, 0.0 ] } },
{ "type": "Feature", "properties": { "Name": "Gereja GMIT Jemaat Bukit Karang Hoinbala", "description": null, "timestamp": null, "begin": null, "end": null, "altitudeMode": null, "tessellate": -1, "extrude": 0, "visibility": -1, "drawOrder": null, "icon": null }, "geometry": { "type": "Point", "coordinates": [ 123.5831026, -10.1739074, 0.0 ] } },
{ "type": "Feature", "properties": { "Name": "Gereja GMIT Jemaat Kefas Kampung Baru", "description": null, "timestamp": null, "begin": null, "end": null, "altitudeMode": null, "tessellate": -1, "extrude": 0, "visibility": -1, "drawOrder": null, "icon": null }, "geometry": { "type": "Point", "coordinates": [ 123.5868694, -10.1650107, 0.0 ] } },
{ "type": "Feature", "properties": { "Name": "GMIT Jemaat Imanuel Batukadera", "description": null, "timestamp": null, "begin": null, "end": null, "altitudeMode": null, "tessellate": -1, "extrude": 0, "visibility": -1, "drawOrder": null, "icon": null }, "geometry": { "type": "Point", "coordinates": [ 123.5770096, -10.1707839, 0.0 ] } },
{ "type": "Feature", "properties": { "Name": "Gereja GMIT Jemaat Tuak Daun Merah", "description": null, "timestamp": null, "begin": null, "end": null, "altitudeMode": null, "tessellate": -1, "extrude": 0, "visibility": -1, "drawOrder": null, "icon": null }, "geometry": { "type": "Point", "coordinates": [ 123.6331173, -10.1617043, 0.0 ] } },
{ "type": "Feature", "properties": { "Name": "Gereja GMIT Jemaat Agape Kupang", "description": null, "timestamp": null, "begin": null, "end": null, "altitudeMode": null, "tessellate": -1, "extrude": 0, "visibility": -1, "drawOrder": null, "icon": null }, "geometry": { "type": "Point", "coordinates": [ 123.5799852, -10.1633091, 0.0 ] } },
{ "type": "Feature", "properties": { "Name": "GMIT Jemaat Yegar Sahaduta Osmo", "description": null, "timestamp": null, "begin": null, "end": null, "altitudeMode": null, "tessellate": -1, "extrude": 0, "visibility": -1, "drawOrder": null, "icon": null }, "geometry": { "type": "Point", "coordinates": [ 123.5549156, -10.1750726, 0.0 ] } },
{ "type": "Feature", "properties": { "Name": "Gereja GMIT Jemaat Sion Oepura", "description": null, "timestamp": null, "begin": null, "end": null, "altitudeMode": null, "tessellate": -1, "extrude": 0, "visibility": -1, "drawOrder": null, "icon": null }, "geometry": { "type": "Point", "coordinates": [ 123.6107333, -10.1962119, 0.0 ] } },
{ "type": "Feature", "properties": { "Name": "GMIT JEMAAT IMANUEL OEPURA", "description": null, "timestamp": null, "begin": null, "end": null, "altitudeMode": null, "tessellate": -1, "extrude": 0, "visibility": -1, "drawOrder": null, "icon": null }, "geometry": { "type": "Point", "coordinates": [ 123.6069155, -10.1894399, 0.0 ] } },
{ "type": "Feature", "properties": { "Name": "Gereja GMIT Jemaat Maranatha Oebufu", "description": null, "timestamp": null, "begin": null, "end": null, "altitudeMode": null, "tessellate": -1, "extrude": 0, "visibility": -1, "drawOrder": null, "icon": null }, "geometry": { "type": "Point", "coordinates": [ 123.6224666, -10.176596, 0.0 ] } },
{ "type": "Feature", "properties": { "Name": "GMIT Jemaat Gloria Kayu Putih", "description": null, "timestamp": null, "begin": null, "end": null, "altitudeMode": null, "tessellate": -1, "extrude": 0, "visibility": -1, "drawOrder": null, "icon": null }, "geometry": { "type": "Point", "coordinates": [ 123.6230497, -10.1656219, 0.0 ] } },
{ "type": "Feature", "properties": { "Name": "GMIT Jemaat Karmel Fatululi", "description": null, "timestamp": null, "begin": null, "end": null, "altitudeMode": null, "tessellate": -1, "extrude": 0, "visibility": -1, "drawOrder": null, "icon": null }, "geometry": { "type": "Point", "coordinates": [ 123.6056133, -10.1592856, 0.0 ] } },
{ "type": "Feature", "properties": { "Name": "GMIT Jemaat Koinonia Kuanino", "description": null, "timestamp": null, "begin": null, "end": null, "altitudeMode": null, "tessellate": -1, "extrude": 0, "visibility": -1, "drawOrder": null, "icon": null }, "geometry": { "type": "Point", "coordinates": [ 123.5899252, -10.1716336, 0.0 ] } },
{ "type": "Feature", "properties": { "Name": "GMIT Jemaat Yarden Labat", "description": null, "timestamp": null, "begin": null, "end": null, "altitudeMode": null, "tessellate": -1, "extrude": 0, "visibility": -1, "drawOrder": null, "icon": null }, "geometry": { "type": "Point", "coordinates": [ 123.5951738, -10.1872928, 0.0 ] } },
{ "type": "Feature", "properties": { "Name": "Gereja Pniel Oebobo", "description": null, "timestamp": null, "begin": null, "end": null, "altitudeMode": null, "tessellate": -1, "extrude": 0, "visibility": -1, "drawOrder": null, "icon": null }, "geometry": { "type": "Point", "coordinates": [ 123.5995415, -10.1672624, 0.0 ] } },
{ "type": "Feature", "properties": { "Name": "Gereja GMIT Jemaat Bukit Karang Hoinbala", "description": null, "timestamp": null, "begin": null, "end": null, "altitudeMode": null, "tessellate": -1, "extrude": 0, "visibility": -1, "drawOrder": null, "icon": null }, "geometry": { "type": "Point", "coordinates": [ 123.5831026, -10.1739074, 0.0 ] } },
{ "type": "Feature", "properties": { "Name": "Gereja GMIT Jemaat Kefas Kampung Baru", "description": null, "timestamp": null, "begin": null, "end": null, "altitudeMode": null, "tessellate": -1, "extrude": 0, "visibility": -1, "drawOrder": null, "icon": null }, "geometry": { "type": "Point", "coordinates": [ 123.5868694, -10.1650107, 0.0 ] } },
{ "type": "Feature", "properties": { "Name": "Gereja GMIT Jemaat Imanuel Tuameko", "description": null, "timestamp": null, "begin": null, "end": null, "altitudeMode": null, "tessellate": -1, "extrude": 0, "visibility": -1, "drawOrder": null, "icon": null }, "geometry": { "type": "Point", "coordinates": [ 123.6752187, -10.1637263, 0.0 ] } },
{ "type": "Feature", "properties": { "Name": "Gereja GMIT Jemaat Baitel Nunhila", "description": null, "timestamp": null, "begin": null, "end": null, "altitudeMode": null, "tessellate": -1, "extrude": 0, "visibility": -1, "drawOrder": null, "icon": null }, "geometry": { "type": "Point", "coordinates": [ 123.5684101, -10.1693269, 0.0 ] } },
{ "type": "Feature", "properties": { "Name": "GMIT Jemaat Bukit Zaitun Tenau", "description": null, "timestamp": null, "begin": null, "end": null, "altitudeMode": null, "tessellate": -1, "extrude": 0, "visibility": -1, "drawOrder": null, "icon": null }, "geometry": { "type": "Point", "coordinates": [ 123.5347819, -10.1929547, 0.0 ] } }
]
}
